[
	{
		"name": "Cafe du Monde",
		"street": "800 Decatur St",
		"city": "New Orleans",
		"state": "LA",
		"zip": "70116",
		"url": "www.cafedumonde.com",
		"pos": {"lat":29.9549728,"lng":-90.0690627}
	},
	{
		"name": "Audubon Aquarium of the Americas",
		"street": "1 Canal St",
		"city": "New Orleans",
		"state": "LA",
		"zip": "70130",
		"url": "https://audubonnatureinstitute.org/aquarium",
		"pos": {"lat":29.9505126,"lng":-90.0651327}
	},
	{
		"name": "Riverwalk Outlets",
		"street": "500 Port of New Orleans Pl",
		"city": "New Orleans",
		"state": "LA",
		"zip": "70130",
		"url": "https://www.riverwalkneworleans.com",
		"pos": {"lat":29.9486541,"lng":-90.064718}
	},
	{
		"name": "Pat O'Brien's",
		"street": "718 St Peter",
		"city": "New Orleans",
		"state": "LA",
		"zip": "70116",
		"url": "http://www.patobriens.com",
		"pos": {"lat":29.9582054,"lng":-90.0674913}
	},
	{
		"name": "The Gumbo Shop",
		"street": "630 St Peter",
		"city": "New Orleans",
		"state": "LA",
		"zip": "70116",
		"url": "http://www.gumboshop.com",
		"pos": {"lat":29.9577089,"lng":-90.0667018}
	},
	{
		"name": "Marie Laveau's House of Voodoo",
		"street": "739 Bourbon St",
		"city": "New Orleans",
		"state": "LA",
		"zip": "70116",
		"url": "https://voodooneworleans.com",
		"pos": {"lat":29.9594158,"lng":-90.0671806}
	},
	{
		"name": "French Market",
		"street": "700-1010 Decatur St",
		"city": "New Orleans",
		"state": "LA",
		"zip": "70116",
		"url": "https://www.frenchmarket.org/shopping/",
		"pos": {"lat":29.9582074,"lng":-90.0633671}
	},
	{
		"name": "Galatoire's",
		"street": "209 Bourbon St.",
		"city": "New Orleans",
		"state": "LA",
		"zip": "70130",
		"url": "www.galatoires.com",
		"pos": {"lat":29.9549362,"lng":-90.0690}
	}
]